[{"street":"Bristlewood Dr #H","city":"Concord Twp","price":154900,"priceFmt":"$154,900","lat":41.678674,"lng":-81.233284,"closeDate":null},{"street":"Behrwald Ave","city":"Brooklyn","price":132000,"priceFmt":"$132,000","lat":41.43293,"lng":-81.74631,"closeDate":null},{"street":"E 232nd St","city":"Euclid","price":109000,"priceFmt":"$109,000","lat":41.594451,"lng":-81.520561,"closeDate":null},{"street":"E 250th St","city":"Euclid","price":154500,"priceFmt":"$154,500","lat":41.607566,"lng":-81.508817,"closeDate":null},{"street":"Stonegate Dr","city":"Ashtabula","price":387500,"priceFmt":"$387,500","lat":41.878384,"lng":-80.848111,"closeDate":null},{"street":"Village Dr","city":"Concord Township","price":187500,"priceFmt":"$187,500","lat":41.677685,"lng":-81.2911,"closeDate":null},{"street":"Eric Dr","city":"Tallmadge","price":220900,"priceFmt":"$220,900","lat":41.085079,"lng":-81.452828,"closeDate":null},{"street":"Broadmoor Rd","city":"Mentor","price":255000,"priceFmt":"$255,000","lat":41.646383,"lng":-81.375365,"closeDate":null},{"street":"Torbenson Dr","city":"Cleveland","price":70000,"priceFmt":"$70,000","lat":41.551882,"lng":-81.553737,"closeDate":null},{"street":"Gore Rd","city":"Ashtabula","price":426000,"priceFmt":"$426,000","lat":41.86508,"lng":-80.861943,"closeDate":null},{"street":"Tate Ave","city":"Cleveland","price":198000,"priceFmt":"$198,000","lat":41.434626,"lng":-81.696493,"closeDate":null},{"street":"Lee Rd","city":"Cleveland","price":155000,"priceFmt":"$155,000","lat":41.44805,"lng":-81.56507,"closeDate":null},{"street":"Manor Gate Way","city":"Mentor","price":475000,"priceFmt":"$475,000","lat":41.658033,"lng":-81.347348,"closeDate":null},{"street":"Electric Blvd C22","city":"Avon Lake","price":147000,"priceFmt":"$147,000","lat":41.4998,"lng":-82.063644,"closeDate":null},{"street":"E 328th St","city":"Willowick","price":110000,"priceFmt":"$110,000","lat":41.6453,"lng":-81.4568,"closeDate":null},{"street":"Wenden Ct","city":"Bratenahl","price":395000,"priceFmt":"$395,000","lat":41.563978,"lng":-81.590755,"closeDate":null},{"street":"Roger Ave","city":"Akron","price":28500,"priceFmt":"$28,500","lat":41.07164,"lng":-81.48189,"closeDate":null},{"street":"Orchard Dr","city":"Willoughby Hills","price":202000,"priceFmt":"$202,000","lat":41.58579,"lng":-81.46954,"closeDate":null},{"street":"Dawley Rd","city":"Ravenna","price":525000,"priceFmt":"$525,000","lat":41.192938,"lng":-81.254774,"closeDate":null},{"street":"Maydale Ave","city":"Euclid","price":196000,"priceFmt":"$196,000","lat":41.60241,"lng":-81.52909,"closeDate":null},{"street":"Parkdale Dr","city":"Akron","price":55000,"priceFmt":"$55,000","lat":41.0643,"lng":-81.5483,"closeDate":null}]